[
  {
    "name": "Usaquén",
    "latitude": "4.700960",
    "longitude": "-74.030115",
    "radius": 4000
  },
  {
    "name": "Chapinero",
    "latitude": "4.648625",
    "longitude": "-74.058901",
    "radius": 2000
  },
  {
    "name": "Usme",
    "latitude": "4.519211",
    "longitude": "-74.102341",
    "radius": 4000
  },
  {
    "name": "Bosa",
    "latitude": "4.621944",
    "longitude": "-74.184741",
    "radius": 2000
  },
  {
    "name": "Kennedy",
    "latitude": "4.626773",
    "longitude": "-74.146747",
    "radius": 2000
  },
  {
    "name": "Fontibón",
    "latitude": "4.670989",
    "longitude": "-74.123093",
    "radius": 3000
  },
  {
    "name": "Engativá",
    "latitude": "4.705091",
    "longitude": "-74.101653",
    "radius": 2000
  },
  {
    "name": "Suba",
    "latitude": "4.752658",
    "longitude": "-74.078963",
    "radius": 4000
  },
  {
    "name": "Barrios Unidos",
    "latitude": "4.676867",
    "longitude": "-74.078793",
    "radius": 2000
  },
  {
    "name": "Teusaquillo",
    "latitude": "4.648491",
    "longitude": "-74.089858",
    "radius": 1500
  },
  {
    "name": "Los Mártires",
    "latitude": "4.617975",
    "longitude": "-74.084103",
    "radius": 2000
  },
  {
    "name": "Antonio Nariño",
    "latitude": "4.598337",
    "longitude": "-74.110799",
    "radius": 1500
  },
  {
    "name": "Puente Aranda",
    "latitude": "4.628749",
    "longitude": "-74.117845",
    "radius": 2000
  },
  {
    "name": "La Candelaria",
    "latitude": "4.575258",
    "longitude": "-74.075774",
    "radius": 2800
  },
  {
    "name": "Rafael Uribe Uribe",
    "latitude": "4.569731",
    "longitude": "-74.121344",
    "radius": 2000
  },
  {
    "name": "Ciudad Bolívar",
    "latitude": "4.542692",
    "longitude": "-74.149687",
    "radius": 2000
  }
]
